{
  "preschools": [
    {
      "id": 1,
      "name": "별빛어린이집",
      "address": "서울특별시 성북구 고려대로17가길 64 안암래미안아파트 관리동 1층",
      "telephone": "02-956-8178",
      "lat": 37.585128,
      "lng": 127.029096
    },
    {
      "id": 2,
      "name": "해오름교실어린이집",
      "address": "서울특별시 성동구 금호지구대로6길 11",
      "telephone": "02-2281-2018",
      "lat": 37.555007,
      "lng": 126.997729
    },
    {
      "id": 3,
      "name": "실버스타어린이집",
      "address": "서울특별시 중랑구 용마산로20길 181",
      "telephone": "02-2207-0598",
      "lat": 37.598871,
      "lng": 127.096597
    },
    {
      "id": 4,
      "name": "삼청어린이집",
      "address": "서울특별시 종로구 삼청로7길 26 (팔판동)",
      "telephone": "02-723-0155",
      "lat": 37.58400574,
      "lng": 126.9804875
    },
    {
      "id": 5,
      "name": "아동회관어린이집",
      "address": "서울특별시 종로구 지봉로13길 14 아동회관어린이집",
      "telephone": "02-763-6038",
      "lat": 37.57830726,
      "lng": 127.0118098
    },
    {
      "id": 6,
      "name": "한빛어린이집",
      "address": "서울특별시 종로구 종로65길 10 (숭인동)",
      "telephone": "02-763-6825",
      "lat": 37.57485743,
      "lng": 127.0199441
    },
    {
      "id": 7,
      "name": "조은어린이집",
      "address": "서울특별시 종로구 지봉로12가길 35 (숭인동)",
      "telephone": "02-763-7800",
      "lat": 37.57564181,
      "lng": 127.0169677
    },
    {
      "id": 8,
      "name": "은행나무어린이집",
      "address": "서울특별시 종로구 낙산5길 33 (창신동)",
      "telephone": "02-744-5420",
      "lat": 37.57895144,
      "lng": 127.010942
    },
    {
      "id": 9,
      "name": "청운어린이집",
      "address": "서울특별시 종로구 자하문로35길 21",
      "telephone": "02-730-9261",
      "lat": 37.58408282,
      "lng": 126.9705784
    }
  ]
}
